{ 
   "total_entries":1008,
   "per_page":25,
   "current_page":1,
   "restaurants":[ 
      { 
         "id":114373,
         "name":"Barley \u0026 Rye",
         "address":"1320 Fifth Ave",
         "city":"Moline",
         "state":"IL",
         "area":"Iowa",
         "postal_code":"61265",
         "country":"US",
         "phone":"3097571557x",
         "lat":41.505273,
         "lng":-90.51788,
         "price":2,
         "reserve_url":"http://www.opentable.com/single.aspx?rid=114373",
         "mobile_reserve_url":"http://mobile.opentable.com/opentable/?restId=114373",
         "image_url":"https://www.opentable.com/img/restimages/114373.jpg"
      },
      { 
         "id":83110,
         "name":"DJ's Steakhouse-Jumers Casino and Hotel",
         "address":"777 Jumer Drive",
         "city":"Rock Island",
         "state":"IL",
         "area":"Iowa",
         "postal_code":"61201",
         "country":"US",
         "phone":"3097564773",
         "lat":41.458166,
         "lng":-90.613328,
         "price":3,
         "reserve_url":"http://www.opentable.com/single.aspx?rid=83110",
         "mobile_reserve_url":"http://mobile.opentable.com/opentable/?restId=83110",
         "image_url":"https://www.opentable.com/img/restimages/83110.jpg"
      },
      { 
         "id":48007,
         "name":"Bass Street Chop House",
         "address":"1601 River Drive",
         "city":"Moline",
         "state":"IL",
         "area":"Iowa",
         "postal_code":"61265",
         "country":"US",
         "phone":"3097624700",
         "lat":41.508479,
         "lng":-90.516741,
         "price":3,
         "reserve_url":"http://www.opentable.com/single.aspx?rid=48007",
         "mobile_reserve_url":"http://mobile.opentable.com/opentable/?restId=48007",
         "image_url":"https://www.opentable.com/img/restimages/48007.jpg"
      },
      { 
         "id":149281,
         "name":"Schiappa's",
         "address":"1411 West US Highway 50",
         "city":"O'Fallon",
         "state":"IL",
         "area":"St. Louis",
         "postal_code":"62269",
         "country":"US",
         "phone":"6186241900x",
         "lat":38.593063,
         "lng":-89.964812,
         "price":2,
         "reserve_url":"http://www.opentable.com/single.aspx?rid=149281",
         "mobile_reserve_url":"http://mobile.opentable.com/opentable/?restId=149281",
         "image_url":"https://www.opentable.com/img/restimages/149281.jpg"
      },
      { 
         "id":32758,
         "name":"Porter's Steakhouse - Collinsville",
         "address":"1000 Eastport plaza",
         "city":"Collinsville",
         "state":"IL",
         "area":"St. Louis",
         "postal_code":"62234",
         "country":"US",
         "phone":"6183452400x",
         "lat":38.679421,
         "lng":-90.016723,
         "price":3,
         "reserve_url":"http://www.opentable.com/single.aspx?rid=32758",
         "mobile_reserve_url":"http://mobile.opentable.com/opentable/?restId=32758",
         "image_url":"https://www.opentable.com/img/restimages/32758.jpg"
      },
      { 
         "id":97030,
         "name":"Range Steakhouse - Harrah's Metropolis",
         "address":"100 Front Street",
         "city":"Metropolis",
         "state":"IL",
         "area":"Western Kentucky",
         "postal_code":"62960",
         "country":"US",
         "phone":"8009295905",
         "lat":37.144473,
         "lng":-88.728243,
         "price":3,
         "reserve_url":"http://www.opentable.com/single.aspx?rid=97030",
         "mobile_reserve_url":"http://mobile.opentable.com/opentable/?restId=97030",
         "image_url":"https://www.opentable.com/img/restimages/97030.jpg"
      },
      { 
         "id":7267,
         "name":"10pin Bowling Lounge",
         "address":"330 N State Street",
         "city":"Chicago",
         "state":"IL",
         "area":"Chicago / Illinois",
         "postal_code":"60610",
         "country":"US",
         "phone":"3126440300x",
         "lat":41.888634,
         "lng":-87.628091,
         "price":4,
         "reserve_url":"http://www.opentable.com/single.aspx?rid=7267",
         "mobile_reserve_url":"http://mobile.opentable.com/opentable/?restId=7267",
         "image_url":"https://www.opentable.com/img/restimages/7267.jpg"
      },
      { 
         "id":147604,
         "name":"Chicago Chop House",
         "address":"60 W Ontario St",
         "city":"Chicago",
         "state":"IL",
         "area":"Chicago / Illinois",
         "postal_code":"60654",
         "country":"US",
         "phone":"3127877100",
         "lat":41.893491,
         "lng":-87.63045,
         "price":4,
         "reserve_url":"http://www.opentable.com/single.aspx?rid=147604",
         "mobile_reserve_url":"http://mobile.opentable.com/opentable/?restId=147604",
         "image_url":"https://www.opentable.com/img/restimages/147604.jpg"
      },
      { 
         "id":18841,
         "name":"Morton's The Steakhouse - Naperville",
         "address":"1751 Freedom Drive",
         "city":"Naperville",
         "state":"IL",
         "area":"Chicago / Illinois",
         "postal_code":"60563",
         "country":"US",
         "phone":"6305771372",
         "lat":41.802301,
         "lng":-88.126369,
         "price":4,
         "reserve_url":"http://www.opentable.com/single.aspx?rid=18841",
         "mobile_reserve_url":"http://mobile.opentable.com/opentable/?restId=18841",
         "image_url":"https://www.opentable.com/img/restimages/18841.jpg"
      },
      { 
         "id":149062,
         "name":"Osteria Langhe",
         "address":"2824 West Armitage Avenue",
         "city":"Chicago",
         "state":"IL",
         "area":"Chicago / Illinois",
         "postal_code":"60647",
         "country":"US",
         "phone":"7736611582x",
         "lat":41.917688,
         "lng":-87.698281,
         "price":2,
         "reserve_url":"http://www.opentable.com/single.aspx?rid=149062",
         "mobile_reserve_url":"http://mobile.opentable.com/opentable/?restId=149062",
         "image_url":"https://www.opentable.com/img/restimages/149062.jpg"
      },
      { 
         "id":2053,
         "name":"The Capital Grille - Chicago - Downtown",
         "address":"633 North Saint Clair",
         "city":"Chicago",
         "state":"IL",
         "area":"Chicago / Illinois",
         "postal_code":"60611",
         "country":"US",
         "phone":"3123379400x",
         "lat":41.893591,
         "lng":-87.622615,
         "price":4,
         "reserve_url":"http://www.opentable.com/single.aspx?rid=2053",
         "mobile_reserve_url":"http://mobile.opentable.com/opentable/?restId=2053",
         "image_url":"https://www.opentable.com/img/restimages/2053.jpg"
      },
      { 
         "id":3401,
         "name":"Signature Room at the 95th",
         "address":"875 N. Michigan Avenue",
         "city":"Chicago",
         "state":"IL",
         "area":"Chicago / Illinois",
         "postal_code":"60611",
         "country":"US",
         "phone":"3127879596x",
         "lat":41.8987,
         "lng":-87.6241,
         "price":4,
         "reserve_url":"http://www.opentable.com/single.aspx?rid=3401",
         "mobile_reserve_url":"http://mobile.opentable.com/opentable/?restId=3401",
         "image_url":"https://www.opentable.com/img/restimages/3401.jpg"
      },
      { 
         "id":1162,
         "name":"Café Ba-Ba-Reeba",
         "address":"2024 North Halsted St.",
         "city":"Chicago",
         "state":"IL",
         "area":"Chicago / Illinois",
         "postal_code":"60614",
         "country":"US",
         "phone":"7739355000x",
         "lat":41.918677,
         "lng":-87.648811,
         "price":2,
         "reserve_url":"http://www.opentable.com/single.aspx?rid=1162",
         "mobile_reserve_url":"http://mobile.opentable.com/opentable/?restId=1162",
         "image_url":"https://www.opentable.com/img/restimages/1162.jpg"
      },
      { 
         "id":3175,
         "name":"Pete Miller's Seafood and Prime Steak - Wheeling",
         "address":"412 N Milwaukee Ave",
         "city":"Wheeling",
         "state":"IL",
         "area":"Chicago / Illinois",
         "postal_code":"60090",
         "country":"US",
         "phone":"8472433700x",
         "lat":42.1465,
         "lng":-87.9113,
         "price":3,
         "reserve_url":"http://www.opentable.com/single.aspx?rid=3175",
         "mobile_reserve_url":"http://mobile.opentable.com/opentable/?restId=3175",
         "image_url":"https://www.opentable.com/img/restimages/3175.jpg"
      },
      { 
         "id":145783,
         "name":"Gaudí Café",
         "address":"1147 W Grand Ave",
         "city":"Chicago",
         "state":"IL",
         "area":"Chicago / Illinois",
         "postal_code":"60642",
         "country":"US",
         "phone":"3127339528x",
         "lat":41.890772,
         "lng":-87.656439,
         "price":2,
         "reserve_url":"http://www.opentable.com/single.aspx?rid=145783",
         "mobile_reserve_url":"http://mobile.opentable.com/opentable/?restId=145783",
         "image_url":"https://www.opentable.com/img/restimages/145783.jpg"
      },
      { 
         "id":5822,
         "name":"Sola",
         "address":"3868 N Lincoln",
         "city":"Chicago",
         "state":"IL",
         "area":"Chicago / Illinois",
         "postal_code":"60613",
         "country":"US",
         "phone":"7733273868",
         "lat":41.952,
         "lng":-87.677,
         "price":2,
         "reserve_url":"http://www.opentable.com/single.aspx?rid=5822",
         "mobile_reserve_url":"http://mobile.opentable.com/opentable/?restId=5822",
         "image_url":"https://www.opentable.com/img/restimages/5822.jpg"
      },
      { 
         "id":71881,
         "name":"goosefoot",
         "address":"2656 W Lawrence Ave",
         "city":"Chicago",
         "state":"IL",
         "area":"Chicago / Illinois",
         "postal_code":"60625",
         "country":"US",
         "phone":"7739427547x",
         "lat":41.96858,
         "lng":-87.695971,
         "price":4,
         "reserve_url":"http://www.opentable.com/single.aspx?rid=71881",
         "mobile_reserve_url":"http://mobile.opentable.com/opentable/?restId=71881",
         "image_url":"https://www.opentable.com/img/restimages/71881.jpg"
      },
      { 
         "id":150433,
         "name":"Fat Rice",
         "address":"2957 W. Diversey Ave",
         "city":"Chicago",
         "state":"IL",
         "area":"Chicago / Illinois",
         "postal_code":"60647",
         "country":"US",
         "phone":"7736619170x",
         "lat":41.931925,
         "lng":-87.702288,
         "price":2,
         "reserve_url":"http://www.opentable.com/single.aspx?rid=150433",
         "mobile_reserve_url":"http://mobile.opentable.com/opentable/?restId=150433",
         "image_url":"https://www.opentable.com/img/restimages/150433.jpg"
      },
      { 
         "id":150607,
         "name":"Spencer's Jolly Posh Foods",
         "address":"3755 N Southport",
         "city":"Chicago",
         "state":"IL",
         "area":"Chicago / Illinois",
         "postal_code":"60613",
         "country":"US",
         "phone":"8728023840x",
         "lat":41.950555,
         "lng":-87.663831,
         "price":2,
         "reserve_url":"http://www.opentable.com/single.aspx?rid=150607",
         "mobile_reserve_url":"http://mobile.opentable.com/opentable/?restId=150607",
         "image_url":"https://www.opentable.com/img/restimages/150607.jpg"
      },
      { 
         "id":7352,
         "name":"The Capital Grille - Chicago - Lombard",
         "address":"87 Yorktown Center",
         "city":"Lombard",
         "state":"IL",
         "area":"Chicago / Illinois",
         "postal_code":"60148",
         "country":"US",
         "phone":"6306279800x",
         "lat":41.83719,
         "lng":-88.00811,
         "price":4,
         "reserve_url":"http://www.opentable.com/single.aspx?rid=7352",
         "mobile_reserve_url":"http://mobile.opentable.com/opentable/?restId=7352",
         "image_url":"https://www.opentable.com/img/restimages/7352.jpg"
      },
      { 
         "id":2448,
         "name":"Ditka's - Chicago",
         "address":"100 E. Chestnut Street",
         "city":"Chicago",
         "state":"IL",
         "area":"Chicago / Illinois",
         "postal_code":"60611",
         "country":"US",
         "phone":"3125878989x",
         "lat":41.8983,
         "lng":-87.6256,
         "price":3,
         "reserve_url":"http://www.opentable.com/single.aspx?rid=2448",
         "mobile_reserve_url":"http://mobile.opentable.com/opentable/?restId=2448",
         "image_url":"https://www.opentable.com/img/restimages/2448.jpg"
      },
      { 
         "id":6650,
         "name":"The Terrace Rooftop  Bar  Restaurant",
         "address":"Conrad Chicago",
         "city":"Chicago",
         "state":"IL",
         "area":"Chicago / Illinois",
         "postal_code":"60611",
         "country":"US",
         "phone":"3123770979x",
         "lat":41.891256,
         "lng":-87.625365,
         "price":3,
         "reserve_url":"http://www.opentable.com/single.aspx?rid=6650",
         "mobile_reserve_url":"http://mobile.opentable.com/opentable/?restId=6650",
         "image_url":"https://www.opentable.com/img/restimages/6650.jpg"
      }

   ]
}